{"type":"FeatureCollection", "features": [
{"type":"Feature","geometry":{"type":"Point","coordinates":[84.89254200361063,44.29049150188138]},"properties":{"id":"650202","ext_path":"新疆维吾尔自治区 克拉玛依市 独山子区","pid":"6502","deep":"2","name":"独山子区","geo_wkt":"POINT (84.886973 44.328096)","ORIG_FID":0}},
{"type":"Feature","geometry":{"type":"Point","coordinates":[84.93354224138142,45.224884178661966]},"properties":{"id":"650203","ext_path":"新疆维吾尔自治区 克拉玛依市 克拉玛依区","pid":"6502","deep":"2","name":"克拉玛依区","geo_wkt":"POINT (84.867862 45.602347)","ORIG_FID":1}},
{"type":"Feature","geometry":{"type":"Point","coordinates":[85.26736591650388,45.61283972677205]},"properties":{"id":"650204","ext_path":"新疆维吾尔自治区 克拉玛依市 白碱滩区","pid":"6502","deep":"2","name":"白碱滩区","geo_wkt":"POINT (85.119047 45.685416)","ORIG_FID":2}},
{"type":"Feature","geometry":{"type":"Point","coordinates":[85.58478963573316,45.97693657846037]},"properties":{"id":"650205","ext_path":"新疆维吾尔自治区 克拉玛依市 乌尔禾区","pid":"6502","deep":"2","name":"乌尔禾区","geo_wkt":"POINT (85.692518 46.085819)","ORIG_FID":3}},
{"type":"Feature","geometry":{"type":"Point","coordinates":[89.26376821023479,42.66264048606962]},"properties":{"id":"650402","ext_path":"新疆维吾尔自治区 吐鲁番市 高昌区","pid":"6504","deep":"2","name":"高昌区","geo_wkt":"POINT (89.185891 42.942728)","ORIG_FID":4}},
{"type":"Feature","geometry":{"type":"Point","coordinates":[90.60582815164793,42.27548480038331]},"properties":{"id":"650421","ext_path":"新疆维吾尔自治区 吐鲁番市 鄯善县","pid":"6504","deep":"2","name":"鄯善县","geo_wkt":"POINT (90.242843 42.900575)","ORIG_FID":5}},
{"type":"Feature","geometry":{"type":"Point","coordinates":[88.39950193446674,42.44986823563062]},"properties":{"id":"650422","ext_path":"新疆维吾尔自治区 吐鲁番市 托克逊县","pid":"6504","deep":"2","name":"托克逊县","geo_wkt":"POINT (88.643739 42.802585)","ORIG_FID":6}},
{"type":"Feature","geometry":{"type":"Point","coordinates":[93.51298689143198,42.33812230390123]},"properties":{"id":"650502","ext_path":"新疆维吾尔自治区 哈密市 伊州区","pid":"6505","deep":"2","name":"伊州区","geo_wkt":"POINT (93.515085 42.827376)","ORIG_FID":7}},
{"type":"Feature","geometry":{"type":"Point","coordinates":[92.78680020326681,44.26997770700564]},"properties":{"id":"650521","ext_path":"新疆维吾尔自治区 哈密市 巴里坤哈萨克自治县","pid":"6505","deep":"2","name":"巴里坤哈萨克自治县","geo_wkt":"POINT (93.016563 43.598756)","ORIG_FID":8}},
{"type":"Feature","geometry":{"type":"Point","coordinates":[94.91104509315659,43.56284392081034]},"properties":{"id":"650522","ext_path":"新疆维吾尔自治区 哈密市 伊吾县","pid":"6505","deep":"2","name":"伊吾县","geo_wkt":"POINT (94.697074 43.254978)","ORIG_FID":9}},
{"type":"Feature","geometry":{"type":"Point","coordinates":[87.06627667832612,44.15771695747168]},"properties":{"id":"652301","ext_path":"新疆维吾尔自治区 昌吉回族自治州 昌吉市","pid":"6523","deep":"2","name":"昌吉市","geo_wkt":"POINT (87.267432 44.014468)","ORIG_FID":10}},
{"type":"Feature","geometry":{"type":"Point","coordinates":[88.29872913733988,44.41537677062149]},"properties":{"id":"652302","ext_path":"新疆维吾尔自治区 昌吉回族自治州 阜康市","pid":"6523","deep":"2","name":"阜康市","geo_wkt":"POINT (87.953826 44.164525)","ORIG_FID":11}},
{"type":"Feature","geometry":{"type":"Point","coordinates":[86.68476045233308,44.36867705240411]},"properties":{"id":"652323","ext_path":"新疆维吾尔自治区 昌吉回族自治州 呼图壁县","pid":"6523","deep":"2","name":"呼图壁县","geo_wkt":"POINT (86.871532 44.179362)","ORIG_FID":12}},
{"type":"Feature","geometry":{"type":"Point","coordinates":[86.12774557779625,44.491407731681534]},"properties":{"id":"652324","ext_path":"新疆维吾尔自治区 昌吉回族自治州 玛纳斯县","pid":"6523","deep":"2","name":"玛纳斯县","geo_wkt":"POINT (86.20488 44.284601)","ORIG_FID":13}},
{"type":"Feature","geometry":{"type":"Point","coordinates":[90.1019806775663,44.51593517656721]},"properties":{"id":"652325","ext_path":"新疆维吾尔自治区 昌吉回族自治州 奇台县","pid":"6523","deep":"2","name":"奇台县","geo_wkt":"POINT (89.593879 44.022001)","ORIG_FID":14}},
{"type":"Feature","geometry":{"type":"Point","coordinates":[89.04621423389983,44.34340584660259]},"properties":{"id":"652327","ext_path":"新疆维吾尔自治区 昌吉回族自治州 吉木萨尔县","pid":"6523","deep":"2","name":"吉木萨尔县","geo_wkt":"POINT (89.179698 44.000404)","ORIG_FID":15}},
{"type":"Feature","geometry":{"type":"Point","coordinates":[90.80318872557928,44.09240625694326]},"properties":{"id":"652328","ext_path":"新疆维吾尔自治区 昌吉回族自治州 木垒哈萨克自治县","pid":"6523","deep":"2","name":"木垒哈萨克自治县","geo_wkt":"POINT (90.286013 43.834631)","ORIG_FID":16}},
{"type":"Feature","geometry":{"type":"Point","coordinates":[85.72052070496665,41.68705750969639]},"properties":{"id":"652801","ext_path":"新疆维吾尔自治区 巴音郭楞蒙古自治州 库尔勒市","pid":"6528","deep":"2","name":"库尔勒市","geo_wkt":"POINT (86.174633 41.725891)","ORIG_FID":17}},
{"type":"Feature","geometry":{"type":"Point","coordinates":[84.57199995623307,41.80918546603647]},"properties":{"id":"652822","ext_path":"新疆维吾尔自治区 巴音郭楞蒙古自治州 轮台县","pid":"6528","deep":"2","name":"轮台县","geo_wkt":"POINT (84.251508 41.778043)","ORIG_FID":18}},
{"type":"Feature","geometry":{"type":"Point","coordinates":[86.85107187236906,40.846966026760754]},"properties":{"id":"652823","ext_path":"新疆维吾尔自治区 巴音郭楞蒙古自治州 尉犁县","pid":"6528","deep":"2","name":"尉犁县","geo_wkt":"POINT (86.261613 41.343871)","ORIG_FID":19}},
{"type":"Feature","geometry":{"type":"Point","coordinates":[89.74849292660736,38.93177274811387]},"properties":{"id":"652824","ext_path":"新疆维吾尔自治区 巴音郭楞蒙古自治州 若羌县","pid":"6528","deep":"2","name":"若羌县","geo_wkt":"POINT (88.167226 39.022626)","ORIG_FID":20}},
{"type":"Feature","geometry":{"type":"Point","coordinates":[85.4900431128994,38.06774008293854]},"properties":{"id":"652825","ext_path":"新疆维吾尔自治区 巴音郭楞蒙古自治州 且末县","pid":"6528","deep":"2","name":"且末县","geo_wkt":"POINT (85.529619 38.145749)","ORIG_FID":21}},
{"type":"Feature","geometry":{"type":"Point","coordinates":[86.0708383690955,42.0880928201276]},"properties":{"id":"652826","ext_path":"新疆维吾尔自治区 巴音郭楞蒙古自治州 焉耆回族自治县","pid":"6528","deep":"2","name":"焉耆回族自治县","geo_wkt":"POINT (86.57434 42.059509)","ORIG_FID":22}},
{"type":"Feature","geometry":{"type":"Point","coordinates":[85.19607900514205,42.819696083607425]},"properties":{"id":"652827","ext_path":"新疆维吾尔自治区 巴音郭楞蒙古自治州 和静县","pid":"6528","deep":"2","name":"和静县","geo_wkt":"POINT (86.384065 42.323625)","ORIG_FID":23}},
{"type":"Feature","geometry":{"type":"Point","coordinates":[87.58186530983625,42.131729005888985]},"properties":{"id":"652828","ext_path":"新疆维吾尔自治区 巴音郭楞蒙古自治州 和硕县","pid":"6528","deep":"2","name":"和硕县","geo_wkt":"POINT (86.877688 42.28361)","ORIG_FID":24}},
{"type":"Feature","geometry":{"type":"Point","coordinates":[86.87945430167474,41.85017647946103]},"properties":{"id":"652829","ext_path":"新疆维吾尔自治区 巴音郭楞蒙古自治州 博湖县","pid":"6528","deep":"2","name":"博湖县","geo_wkt":"POINT (86.632116 41.980745)","ORIG_FID":25}},
{"type":"Feature","geometry":{"type":"Point","coordinates":[81.77148525643952,44.813993477616975]},"properties":{"id":"652701","ext_path":"新疆维吾尔自治区 博尔塔拉蒙古自治州 博乐市","pid":"6527","deep":"2","name":"博乐市","geo_wkt":"POINT (82.051433 44.853882)","ORIG_FID":26}},
{"type":"Feature","geometry":{"type":"Point","coordinates":[82.52902731405936,45.151453729605976]},"properties":{"id":"652702","ext_path":"新疆维吾尔自治区 博尔塔拉蒙古自治州 阿拉山口市","pid":"6527","deep":"2","name":"阿拉山口市","geo_wkt":"POINT (82.554609 45.173274)","ORIG_FID":27}},
{"type":"Feature","geometry":{"type":"Point","coordinates":[82.91635580357752,44.54672697686851]},"properties":{"id":"652722","ext_path":"新疆维吾尔自治区 博尔塔拉蒙古自治州 精河县","pid":"6527","deep":"2","name":"精河县","geo_wkt":"POINT (82.890709 44.599202)","ORIG_FID":28}},
{"type":"Feature","geometry":{"type":"Point","coordinates":[80.9446234006495,44.96277659746204]},"properties":{"id":"652723","ext_path":"新疆维吾尔自治区 博尔塔拉蒙古自治州 温泉县","pid":"6527","deep":"2","name":"温泉县","geo_wkt":"POINT (81.024827 44.968857)","ORIG_FID":29}},
{"type":"Feature","geometry":{"type":"Point","coordinates":[76.8593090599652,40.12379843554942]},"properties":{"id":"653001","ext_path":"新疆维吾尔自治区 克孜勒苏柯尔克孜自治州 阿图什市","pid":"6530","deep":"2","name":"阿图什市","geo_wkt":"POINT (76.167538 39.716586)","ORIG_FID":30}},
{"type":"Feature","geometry":{"type":"Point","coordinates":[75.2221620390469,38.634906462463334]},"properties":{"id":"653022","ext_path":"新疆维吾尔自治区 克孜勒苏柯尔克孜自治州 阿克陶县","pid":"6530","deep":"2","name":"阿克陶县","geo_wkt":"POINT (75.947396 39.147785)","ORIG_FID":31}},
{"type":"Feature","geometry":{"type":"Point","coordinates":[77.88482369315898,40.84680072867076]},"properties":{"id":"653023","ext_path":"新疆维吾尔自治区 克孜勒苏柯尔克孜自治州 阿合奇县","pid":"6530","deep":"2","name":"阿合奇县","geo_wkt":"POINT (78.402073 40.937581)","ORIG_FID":32}},
{"type":"Feature","geometry":{"type":"Point","coordinates":[74.90846323349149,39.82130740131555]},"properties":{"id":"653024","ext_path":"新疆维吾尔自治区 克孜勒苏柯尔克孜自治州 乌恰县","pid":"6530","deep":"2","name":"乌恰县","geo_wkt":"POINT (75.259228 39.7205)","ORIG_FID":33}},
{"type":"Feature","geometry":{"type":"Point","coordinates":[93.76162963589906,42.68046588809034]},"properties":{"id":"659011000","ext_path":"新疆维吾尔自治区 新星市 新星市","pid":"659011","deep":"2","name":"新星市","geo_wkt":"POINT (93.74831 42.797043)","ORIG_FID":34}},
{"type":"Feature","geometry":{"type":"Point","coordinates":[80.96388014295428,40.6487757931684]},"properties":{"id":"659002000","ext_path":"新疆维吾尔自治区 阿拉尔市 阿拉尔市","pid":"659002","deep":"2","name":"阿拉尔市","geo_wkt":"POINT (81.280532 40.547205)","ORIG_FID":35}},
{"type":"Feature","geometry":{"type":"Point","coordinates":[79.16318591309948,39.87007836162712]},"properties":{"id":"659003000","ext_path":"新疆维吾尔自治区 图木舒克市 图木舒克市","pid":"659003","deep":"2","name":"图木舒克市","geo_wkt":"POINT (79.074965 39.867776)","ORIG_FID":36}},
{"type":"Feature","geometry":{"type":"Point","coordinates":[84.79918721042151,44.804687883039435]},"properties":{"id":"659010000","ext_path":"新疆维吾尔自治区 胡杨河市 胡杨河市","pid":"659010","deep":"2","name":"胡杨河市","geo_wkt":"POINT (84.827592 44.692894)","ORIG_FID":37}},
{"type":"Feature","geometry":{"type":"Point","coordinates":[85.64000241018311,41.799736193070885]},"properties":{"id":"659006000","ext_path":"新疆维吾尔自治区 铁门关市 铁门关市","pid":"659006","deep":"2","name":"铁门关市","geo_wkt":"POINT (85.670291 41.862997)","ORIG_FID":38}},
{"type":"Feature","geometry":{"type":"Point","coordinates":[79.02458012047623,37.47325942498253]},"properties":{"id":"659009000","ext_path":"新疆维吾尔自治区 昆玉市 昆玉市","pid":"659009","deep":"2","name":"昆玉市","geo_wkt":"POINT (79.270193 37.215372)","ORIG_FID":39}},
{"type":"Feature","geometry":{"type":"Point","coordinates":[82.36301671005316,44.87511303613775]},"properties":{"id":"659007000","ext_path":"新疆维吾尔自治区 双河市 双河市","pid":"659007","deep":"2","name":"双河市","geo_wkt":"POINT (82.353656 44.840524)","ORIG_FID":40}},
{"type":"Feature","geometry":{"type":"Point","coordinates":[80.68730617074323,43.91721330415072]},"properties":{"id":"659008000","ext_path":"新疆维吾尔自治区 可克达拉市 可克达拉市","pid":"659008","deep":"2","name":"可克达拉市","geo_wkt":"POINT (80.994153 43.940381)","ORIG_FID":41}},
{"type":"Feature","geometry":{"type":"Point","coordinates":[87.9564721848435,47.24522289671938]},"properties":{"id":"659005000","ext_path":"新疆维吾尔自治区 北屯市 北屯市","pid":"659005","deep":"2","name":"北屯市","geo_wkt":"POINT (87.834419 47.326733)","ORIG_FID":42}},
{"type":"Feature","geometry":{"type":"Point","coordinates":[76.18160278903753,39.52074247028884]},"properties":{"id":"653101","ext_path":"新疆维吾尔自治区 喀什地区 喀什市","pid":"6531","deep":"2","name":"喀什市","geo_wkt":"POINT (75.993936 39.46823)","ORIG_FID":43}},
{"type":"Feature","geometry":{"type":"Point","coordinates":[75.61440532804352,39.369743632262896]},"properties":{"id":"653121","ext_path":"新疆维吾尔自治区 喀什地区 疏附县","pid":"6531","deep":"2","name":"疏附县","geo_wkt":"POINT (75.862839 39.375052)","ORIG_FID":44}},
{"type":"Feature","geometry":{"type":"Point","coordinates":[76.35724547210089,39.18728745874927]},"properties":{"id":"653122","ext_path":"新疆维吾尔自治区 喀什地区 疏勒县","pid":"6531","deep":"2","name":"疏勒县","geo_wkt":"POINT (76.047169 39.401173)","ORIG_FID":45}},
{"type":"Feature","geometry":{"type":"Point","coordinates":[76.3662290743124,38.79520307726028]},"properties":{"id":"653123","ext_path":"新疆维吾尔自治区 喀什地区 英吉沙县","pid":"6531","deep":"2","name":"英吉沙县","geo_wkt":"POINT (76.175729 38.930381)","ORIG_FID":46}},
{"type":"Feature","geometry":{"type":"Point","coordinates":[77.21725631512692,38.11809340308815]},"properties":{"id":"653124","ext_path":"新疆维吾尔自治区 喀什地区 泽普县","pid":"6531","deep":"2","name":"泽普县","geo_wkt":"POINT (77.260375 38.184639)","ORIG_FID":47}},
{"type":"Feature","geometry":{"type":"Point","coordinates":[77.00503115196614,38.3170826573388]},"properties":{"id":"653125","ext_path":"新疆维吾尔自治区 喀什地区 莎车县","pid":"6531","deep":"2","name":"莎车县","geo_wkt":"POINT (77.223197 38.390881)","ORIG_FID":48}},
{"type":"Feature","geometry":{"type":"Point","coordinates":[77.2211182836819,36.97918327378909]},"properties":{"id":"653126","ext_path":"新疆维吾尔自治区 喀什地区 叶城县","pid":"6531","deep":"2","name":"叶城县","geo_wkt":"POINT (77.413669 37.882994)","ORIG_FID":49}},
{"type":"Feature","geometry":{"type":"Point","coordinates":[78.23676113072167,38.84006707503556]},"properties":{"id":"653127","ext_path":"新疆维吾尔自治区 喀什地区 麦盖提县","pid":"6531","deep":"2","name":"麦盖提县","geo_wkt":"POINT (77.609099 38.898986)","ORIG_FID":50}},
{"type":"Feature","geometry":{"type":"Point","coordinates":[76.97823047545614,39.1107115427036]},"properties":{"id":"653128","ext_path":"新疆维吾尔自治区 喀什地区 岳普湖县","pid":"6531","deep":"2","name":"岳普湖县","geo_wkt":"POINT (76.821269 39.219857)","ORIG_FID":51}},
{"type":"Feature","geometry":{"type":"Point","coordinates":[77.22169042337441,39.591591779636985]},"properties":{"id":"653129","ext_path":"新疆维吾尔自治区 喀什地区 伽师县","pid":"6531","deep":"2","name":"伽师县","geo_wkt":"POINT (76.723719 39.488181)","ORIG_FID":52}},
{"type":"Feature","geometry":{"type":"Point","coordinates":[78.83575075289497,39.54882661425688]},"properties":{"id":"653130","ext_path":"新疆维吾尔自治区 喀什地区 巴楚县","pid":"6531","deep":"2","name":"巴楚县","geo_wkt":"POINT (78.54799 39.79923)","ORIG_FID":53}},
{"type":"Feature","geometry":{"type":"Point","coordinates":[75.84891125784833,37.00764838676366]},"properties":{"id":"653131","ext_path":"新疆维吾尔自治区 喀什地区 塔什库尔干塔吉克自治县","pid":"6531","deep":"2","name":"塔什库尔干塔吉克自治县","geo_wkt":"POINT (75.229889 37.772094)","ORIG_FID":54}},
{"type":"Feature","geometry":{"type":"Point","coordinates":[80.03013884063506,37.26725935103826]},"properties":{"id":"653201","ext_path":"新疆维吾尔自治区 和田地区 和田市","pid":"6532","deep":"2","name":"和田市","geo_wkt":"POINT (79.912881 37.112246)","ORIG_FID":55}},
{"type":"Feature","geometry":{"type":"Point","coordinates":[79.33917357340175,35.6543685286847]},"properties":{"id":"653221","ext_path":"新疆维吾尔自治区 和田地区 和田县","pid":"6532","deep":"2","name":"和田县","geo_wkt":"POINT (79.81907 37.120031)","ORIG_FID":56}},
{"type":"Feature","geometry":{"type":"Point","coordinates":[80.0443165222897,38.37676189494556]},"properties":{"id":"653222","ext_path":"新疆维吾尔自治区 和田地区 墨玉县","pid":"6532","deep":"2","name":"墨玉县","geo_wkt":"POINT (79.728434 37.277518)","ORIG_FID":57}},
{"type":"Feature","geometry":{"type":"Point","coordinates":[78.51268183539844,37.205164712481576]},"properties":{"id":"653223","ext_path":"新疆维吾尔自治区 和田地区 皮山县","pid":"6532","deep":"2","name":"皮山县","geo_wkt":"POINT (78.28548 37.578264)","ORIG_FID":58}},
{"type":"Feature","geometry":{"type":"Point","coordinates":[80.73899848878926,38.01185172247904]},"properties":{"id":"653224","ext_path":"新疆维吾尔自治区 和田地区 洛浦县","pid":"6532","deep":"2","name":"洛浦县","geo_wkt":"POINT (80.179911 37.066226)","ORIG_FID":59}},
{"type":"Feature","geometry":{"type":"Point","coordinates":[81.08241356123693,37.043493108020584]},"properties":{"id":"653225","ext_path":"新疆维吾尔自治区 和田地区 策勒县","pid":"6532","deep":"2","name":"策勒县","geo_wkt":"POINT (80.801433 36.99785)","ORIG_FID":60}},
{"type":"Feature","geometry":{"type":"Point","coordinates":[81.98597142584066,37.14239442856007]},"properties":{"id":"653226","ext_path":"新疆维吾尔自治区 和田地区 于田县","pid":"6532","deep":"2","name":"于田县","geo_wkt":"POINT (81.677417 36.85708)","ORIG_FID":61}},
{"type":"Feature","geometry":{"type":"Point","coordinates":[83.34304257385577,37.12047933435383]},"properties":{"id":"653227","ext_path":"新疆维吾尔自治区 和田地区 民丰县","pid":"6532","deep":"2","name":"民丰县","geo_wkt":"POINT (82.695946 37.064428)","ORIG_FID":62}},
{"type":"Feature","geometry":{"type":"Point","coordinates":[83.19242379112512,46.80537005798186]},"properties":{"id":"654201","ext_path":"新疆维吾尔自治区 塔城地区 塔城市","pid":"6542","deep":"2","name":"塔城市","geo_wkt":"POINT (82.986923 46.751669)","ORIG_FID":63}},
{"type":"Feature","geometry":{"type":"Point","coordinates":[84.27110535442864,44.397153321468636]},"properties":{"id":"654202","ext_path":"新疆维吾尔自治区 塔城地区 乌苏市","pid":"6542","deep":"2","name":"乌苏市","geo_wkt":"POINT (84.713762 44.418693)","ORIG_FID":64}},
{"type":"Feature","geometry":{"type":"Point","coordinates":[85.46931066675393,44.33972527849886]},"properties":{"id":"654203","ext_path":"新疆维吾尔自治区 塔城地区 沙湾市","pid":"6542","deep":"2","name":"沙湾市","geo_wkt":"POINT (85.619483 44.326267)","ORIG_FID":65}},
{"type":"Feature","geometry":{"type":"Point","coordinates":[84.19868800065075,46.58342301935693]},"properties":{"id":"654221","ext_path":"新疆维吾尔自治区 塔城地区 额敏县","pid":"6542","deep":"2","name":"额敏县","geo_wkt":"POINT (83.628303 46.524673)","ORIG_FID":66}},
{"type":"Feature","geometry":{"type":"Point","coordinates":[83.88804322261672,45.64905165021355]},"properties":{"id":"654224","ext_path":"新疆维吾尔自治区 塔城地区 托里县","pid":"6542","deep":"2","name":"托里县","geo_wkt":"POINT (83.606372 45.948935)","ORIG_FID":67}},
{"type":"Feature","geometry":{"type":"Point","coordinates":[82.80824651346586,45.9929817859807]},"properties":{"id":"654225","ext_path":"新疆维吾尔自治区 塔城地区 裕民县","pid":"6542","deep":"2","name":"裕民县","geo_wkt":"POINT (82.982252 46.201049)","ORIG_FID":68}},
{"type":"Feature","geometry":{"type":"Point","coordinates":[86.21175561093276,46.24296114244282]},"properties":{"id":"654226","ext_path":"新疆维吾尔自治区 塔城地区 和布克赛尔蒙古自治县","pid":"6542","deep":"2","name":"和布克赛尔蒙古自治县","geo_wkt":"POINT (85.728328 46.793235)","ORIG_FID":69}},
{"type":"Feature","geometry":{"type":"Point","coordinates":[86.03822367178509,44.30666529536717]},"properties":{"id":"659001000","ext_path":"新疆维吾尔自治区 石河子市 石河子市","pid":"659001","deep":"2","name":"石河子市","geo_wkt":"POINT (86.080397 44.305368)","ORIG_FID":70}},
{"type":"Feature","geometry":{"type":"Point","coordinates":[87.91708701795159,47.88123955456183]},"properties":{"id":"654301","ext_path":"新疆维吾尔自治区 阿勒泰地区 阿勒泰市","pid":"6543","deep":"2","name":"阿勒泰市","geo_wkt":"POINT (88.131842 47.827308)","ORIG_FID":71}},
{"type":"Feature","geometry":{"type":"Point","coordinates":[87.22863244293296,48.30736799153965]},"properties":{"id":"654321","ext_path":"新疆维吾尔自治区 阿勒泰地区 布尔津县","pid":"6543","deep":"2","name":"布尔津县","geo_wkt":"POINT (86.875043 47.701892)","ORIG_FID":72}},
{"type":"Feature","geometry":{"type":"Point","coordinates":[89.38547000753488,46.51335818233429]},"properties":{"id":"654322","ext_path":"新疆维吾尔自治区 阿勒泰地区 富蕴县","pid":"6543","deep":"2","name":"富蕴县","geo_wkt":"POINT (89.525463 46.994046)","ORIG_FID":73}},
{"type":"Feature","geometry":{"type":"Point","coordinates":[88.04531462247189,46.34439440257967]},"properties":{"id":"654323","ext_path":"新疆维吾尔自治区 阿勒泰地区 福海县","pid":"6543","deep":"2","name":"福海县","geo_wkt":"POINT (87.486703 47.111918)","ORIG_FID":74}},
{"type":"Feature","geometry":{"type":"Point","coordinates":[86.40042526251591,48.30640449836898]},"properties":{"id":"654324","ext_path":"新疆维吾尔自治区 阿勒泰地区 哈巴河县","pid":"6543","deep":"2","name":"哈巴河县","geo_wkt":"POINT (86.418621 48.060846)","ORIG_FID":75}},
{"type":"Feature","geometry":{"type":"Point","coordinates":[90.3970834952072,46.25422168238481]},"properties":{"id":"654325","ext_path":"新疆维吾尔自治区 阿勒泰地区 青河县","pid":"6543","deep":"2","name":"青河县","geo_wkt":"POINT (90.375159 46.678532)","ORIG_FID":76}},
{"type":"Feature","geometry":{"type":"Point","coordinates":[86.20114935655761,47.39819177343168]},"properties":{"id":"654326","ext_path":"新疆维吾尔自治区 阿勒泰地区 吉木乃县","pid":"6543","deep":"2","name":"吉木乃县","geo_wkt":"POINT (85.874096 47.443101)","ORIG_FID":77}},
{"type":"Feature","geometry":{"type":"Point","coordinates":[81.27827583586117,44.00831726512973]},"properties":{"id":"654002","ext_path":"新疆维吾尔自治区 伊犁哈萨克自治州 伊宁市","pid":"6540","deep":"2","name":"伊宁市","geo_wkt":"POINT (81.277715 43.908021)","ORIG_FID":78}},
{"type":"Feature","geometry":{"type":"Point","coordinates":[85.03462363457311,44.49911502234045]},"properties":{"id":"654003","ext_path":"新疆维吾尔自治区 伊犁哈萨克自治州 奎屯市","pid":"6540","deep":"2","name":"奎屯市","geo_wkt":"POINT (84.903216 44.426452)","ORIG_FID":79}},
{"type":"Feature","geometry":{"type":"Point","coordinates":[80.51780039297381,44.460487757304236]},"properties":{"id":"654004","ext_path":"新疆维吾尔自治区 伊犁哈萨克自治州 霍尔果斯市","pid":"6540","deep":"2","name":"霍尔果斯市","geo_wkt":"POINT (80.414614 44.218381)","ORIG_FID":80}},
{"type":"Feature","geometry":{"type":"Point","coordinates":[81.74818605883962,44.00477904621607]},"properties":{"id":"654021","ext_path":"新疆维吾尔自治区 伊犁哈萨克自治州 伊宁县","pid":"6540","deep":"2","name":"伊宁县","geo_wkt":"POINT (81.52745 43.977119)","ORIG_FID":81}},
{"type":"Feature","geometry":{"type":"Point","coordinates":[81.13300392289278,43.61183495152187]},"properties":{"id":"654022","ext_path":"新疆维吾尔自治区 伊犁哈萨克自治州 察布查尔锡伯自治县","pid":"6540","deep":"2","name":"察布查尔锡伯自治县","geo_wkt":"POINT (81.151337 43.840726)","ORIG_FID":82}},
{"type":"Feature","geometry":{"type":"Point","coordinates":[80.9773760683509,44.259340951223976]},"properties":{"id":"654023","ext_path":"新疆维吾尔自治区 伊犁哈萨克自治州 霍城县","pid":"6540","deep":"2","name":"霍城县","geo_wkt":"POINT (80.878845 44.056329)","ORIG_FID":83}},
{"type":"Feature","geometry":{"type":"Point","coordinates":[82.43584560798848,43.30037644621609]},"properties":{"id":"654024","ext_path":"新疆维吾尔自治区 伊犁哈萨克自治州 巩留县","pid":"6540","deep":"2","name":"巩留县","geo_wkt":"POINT (82.231219 43.48313)","ORIG_FID":84}},
{"type":"Feature","geometry":{"type":"Point","coordinates":[83.55097993407674,43.37050403433375]},"properties":{"id":"654025","ext_path":"新疆维吾尔自治区 伊犁哈萨克自治州 新源县","pid":"6540","deep":"2","name":"新源县","geo_wkt":"POINT (83.233002 43.434803)","ORIG_FID":85}},
{"type":"Feature","geometry":{"type":"Point","coordinates":[80.9786817724459,42.76863657531777]},"properties":{"id":"654026","ext_path":"新疆维吾尔自治区 伊犁哈萨克自治州 昭苏县","pid":"6540","deep":"2","name":"昭苏县","geo_wkt":"POINT (81.130974 43.157293)","ORIG_FID":86}},
{"type":"Feature","geometry":{"type":"Point","coordinates":[82.00107622039133,42.918415838220426]},"properties":{"id":"654027","ext_path":"新疆维吾尔自治区 伊犁哈萨克自治州 特克斯县","pid":"6540","deep":"2","name":"特克斯县","geo_wkt":"POINT (81.835732 43.218435)","ORIG_FID":87}},
{"type":"Feature","geometry":{"type":"Point","coordinates":[83.22978596634931,43.81000720766656]},"properties":{"id":"654028","ext_path":"新疆维吾尔自治区 伊犁哈萨克自治州 尼勒克县","pid":"6540","deep":"2","name":"尼勒克县","geo_wkt":"POINT (82.511884 43.798627)","ORIG_FID":88}},
{"type":"Feature","geometry":{"type":"Point","coordinates":[81.23285420625666,40.33297063418746]},"properties":{"id":"652901","ext_path":"新疆维吾尔自治区 阿克苏地区 阿克苏市","pid":"6529","deep":"2","name":"阿克苏市","geo_wkt":"POINT (80.263387 41.16755)","ORIG_FID":89}},
{"type":"Feature","geometry":{"type":"Point","coordinates":[83.45144710959647,41.775801539909196]},"properties":{"id":"652902","ext_path":"新疆维吾尔自治区 阿克苏地区 库车市","pid":"6529","deep":"2","name":"库车市","geo_wkt":"POINT (82.998544 41.719073)","ORIG_FID":90}},
{"type":"Feature","geometry":{"type":"Point","coordinates":[80.44239353893073,41.58760971881355]},"properties":{"id":"652922","ext_path":"新疆维吾尔自治区 阿克苏地区 温宿县","pid":"6529","deep":"2","name":"温宿县","geo_wkt":"POINT (80.243273 41.272995)","ORIG_FID":91}},
{"type":"Feature","geometry":{"type":"Point","coordinates":[82.91532749087105,40.394154630032176]},"properties":{"id":"652924","ext_path":"新疆维吾尔自治区 阿克苏地区 沙雅县","pid":"6529","deep":"2","name":"沙雅县","geo_wkt":"POINT (82.781774 41.221413)","ORIG_FID":92}},
{"type":"Feature","geometry":{"type":"Point","coordinates":[81.97990604003178,41.35875232286145]},"properties":{"id":"652925","ext_path":"新疆维吾尔自治区 阿克苏地区 新和县","pid":"6529","deep":"2","name":"新和县","geo_wkt":"POINT (82.620371 41.552097)","ORIG_FID":93}},
{"type":"Feature","geometry":{"type":"Point","coordinates":[81.89315565660831,42.0378358074766]},"properties":{"id":"652926","ext_path":"新疆维吾尔自治区 阿克苏地区 拜城县","pid":"6529","deep":"2","name":"拜城县","geo_wkt":"POINT (81.851289 41.795289)","ORIG_FID":94}},
{"type":"Feature","geometry":{"type":"Point","coordinates":[79.27539672687749,41.253916879760254]},"properties":{"id":"652927","ext_path":"新疆维吾尔自治区 阿克苏地区 乌什县","pid":"6529","deep":"2","name":"乌什县","geo_wkt":"POINT (79.22118 41.222706)","ORIG_FID":95}},
{"type":"Feature","geometry":{"type":"Point","coordinates":[80.4493353410532,40.04163840139114]},"properties":{"id":"652928","ext_path":"新疆维吾尔自治区 阿克苏地区 阿瓦提县","pid":"6529","deep":"2","name":"阿瓦提县","geo_wkt":"POINT (80.375053 40.643647)","ORIG_FID":96}},
{"type":"Feature","geometry":{"type":"Point","coordinates":[78.99388844079897,40.44975424965895]},"properties":{"id":"652929","ext_path":"新疆维吾尔自治区 阿克苏地区 柯坪县","pid":"6529","deep":"2","name":"柯坪县","geo_wkt":"POINT (79.054019 40.501645)","ORIG_FID":97}},
{"type":"Feature","geometry":{"type":"Point","coordinates":[87.63005792333456,43.712477530413764]},"properties":{"id":"650102","ext_path":"新疆维吾尔自治区 乌鲁木齐市 天山区","pid":"6501","deep":"2","name":"天山区","geo_wkt":"POINT (87.631986 43.794312)","ORIG_FID":98}},
{"type":"Feature","geometry":{"type":"Point","coordinates":[87.47549300000202,43.720029601684814]},"properties":{"id":"650103","ext_path":"新疆维吾尔自治区 乌鲁木齐市 沙依巴克区","pid":"6501","deep":"2","name":"沙依巴克区","geo_wkt":"POINT (87.598043 43.800994)","ORIG_FID":99}},
{"type":"Feature","geometry":{"type":"Point","coordinates":[87.51681954238802,43.95308746561409]},"properties":{"id":"650104","ext_path":"新疆维吾尔自治区 乌鲁木齐市 新市区","pid":"6501","deep":"2","name":"新市区","geo_wkt":"POINT (87.592684 43.893023)","ORIG_FID":100}},
{"type":"Feature","geometry":{"type":"Point","coordinates":[87.77624990211137,43.82744594077758]},"properties":{"id":"650105","ext_path":"新疆维吾尔自治区 乌鲁木齐市 水磨沟区","pid":"6501","deep":"2","name":"水磨沟区","geo_wkt":"POINT (87.64208 43.832714)","ORIG_FID":101}},
{"type":"Feature","geometry":{"type":"Point","coordinates":[87.37458386205566,43.898374580222765]},"properties":{"id":"650106","ext_path":"新疆维吾尔自治区 乌鲁木齐市 头屯河区","pid":"6501","deep":"2","name":"头屯河区","geo_wkt":"POINT (87.425823 43.876052)","ORIG_FID":102}},
{"type":"Feature","geometry":{"type":"Point","coordinates":[88.28954672470167,43.52760320762201]},"properties":{"id":"650107","ext_path":"新疆维吾尔自治区 乌鲁木齐市 达坂城区","pid":"6501","deep":"2","name":"达坂城区","geo_wkt":"POINT (88.311099 43.363668)","ORIG_FID":103}},
{"type":"Feature","geometry":{"type":"Point","coordinates":[87.73436442927505,44.48371457656651]},"properties":{"id":"650109","ext_path":"新疆维吾尔自治区 乌鲁木齐市 米东区","pid":"6501","deep":"2","name":"米东区","geo_wkt":"POINT (87.655122 43.97444)","ORIG_FID":104}},
{"type":"Feature","geometry":{"type":"Point","coordinates":[87.35038210574965,43.38442149895309]},"properties":{"id":"650121","ext_path":"新疆维吾尔自治区 乌鲁木齐市 乌鲁木齐县","pid":"6501","deep":"2","name":"乌鲁木齐县","geo_wkt":"POINT (87.464257 43.509016)","ORIG_FID":105}},
{"type":"Feature","geometry":{"type":"Point","coordinates":[87.55767291097612,44.36172952339882]},"properties":{"id":"659004000","ext_path":"新疆维吾尔自治区 五家渠市 五家渠市","pid":"659004","deep":"2","name":"五家渠市","geo_wkt":"POINT (87.542852 44.166489)","ORIG_FID":106}}
]}